{
  "type": "FeatureCollection",
  "features": [
    {
      "type": "Feature",
      "properties": { "name": "Chandler AZC", "href": "/locations/chandler" },
      "geometry": { "coordinates": [-111.84209536790628, 33.30682025786933], "type": "Point" },
      "id": 0
    },
    {
      "type": "Feature",
      "properties": { "name": "london", "href": "/locations/london" },
      "geometry": { "coordinates": [-0.12742062981527624, 51.51304223486093], "type": "Point" },
      "id": 1
    },
    {
      "type": "Feature",
      "properties": { "name": "New Jersey", "href": "/locations/new-jersey" },
      "geometry": { "coordinates": [-74.36368513620063, 40.184421046639585], "type": "Point" },
      "id": 2
    },
    {
      "type": "Feature",
      "properties": { "name": "ohio", "href": "/locations/ohio" },
      "geometry": { "coordinates": [-82.68644444394347, 40.534510991478726], "type": "Point" },
      "id": 3
    },
    {
      "type": "Feature",
      "properties": { "name": "Pheonix", "href": "/locations/phoenix" },
      "geometry": { "coordinates": [-112.09725236012149, 33.523202555021825], "type": "Point" },
      "id": 4
    },
    {
      "type": "Feature",
      "properties": { "name": "singapore", "href": "/locations/singapore" },
      "geometry": { "coordinates": [103.80449526418874, 1.3520748240272695], "type": "Point" },
      "id": 5
    }
  ]
}
